City_ID,City,Country,Lat,Lng,Max Temp,Humidity,Cloudiness,Wind Speed,Current Description
0,Champerico,GT,14.3,-91.9167,82.76,74,91,3.8,overcast clouds
1,Hobyo,SO,5.3505,48.5268,75.43,77,76,22.79,broken clouds
2,Ambon,ID,-3.6954,128.1814,86.14,70,40,5.75,scattered clouds
3,Alcaniz,ES,41.05,-0.1333,67.42,61,87,11.36,moderate rain
4,Vaini,TO,-21.2,-175.2,78.96,83,20,8.05,few clouds
5,Hithadhoo,MV,-0.6,73.0833,81.36,74,100,6.67,overcast clouds
6,Hermanus,ZA,-34.4187,19.2345,54.81,53,100,7.7,overcast clouds
7,Missoula,US,47.0166,-113.8009,73.8,34,0,4.5,clear sky
8,Howard Springs,AU,-12.497,131.047,87.98,61,100,6.85,overcast clouds
9,Tallahassee,US,30.4383,-84.2807,82.63,86,75,0.0,broken clouds
10,Saint Anthony,US,45.0205,-93.218,80.71,56,1,1.01,clear sky
11,Avarua,CK,-21.2078,-159.775,77.05,83,75,6.91,broken clouds
12,Barrow,US,71.2906,-156.7887,39.22,96,90,14.97,light rain
13,Cukai,MY,4.25,103.4167,87.94,72,100,5.17,overcast clouds
14,Bredasdorp,ZA,-34.5322,20.0403,54.28,54,100,8.05,overcast clouds
15,Torbay,CA,47.6666,-52.7314,55.58,94,90,8.05,overcast clouds
16,Rikitea,PF,-23.1203,-134.9692,71.62,74,23,7.49,few clouds
17,Viedma,AR,-40.8135,-62.9967,44.91,58,76,10.04,broken clouds
18,Kamina,CD,-8.7386,24.9906,56.3,50,89,8.25,overcast clouds
19,Vasilyevskiy Mokh,RU,57.0132,35.919,61.38,66,100,3.15,overcast clouds
20,Progreso,MX,21.2833,-89.6667,82.51,83,70,10.27,broken clouds
21,Hofn,IS,64.2539,-15.2082,51.12,89,22,10.71,few clouds
22,Makakilo City,US,21.3469,-158.0858,88.12,61,75,11.5,broken clouds
23,Ushuaia,AR,-54.8,-68.3,33.46,86,20,14.97,few clouds
24,Eyl,SO,7.9803,49.8164,78.75,61,95,23.26,overcast clouds
25,Poum,NC,-20.2333,164.0167,72.95,69,20,24.27,few clouds
26,Mataura,NZ,-46.1927,168.8643,49.48,87,100,0.58,overcast clouds
27,Hamilton,US,39.1834,-84.5333,79.0,86,20,0.0,few clouds
28,Lipari,IT,38.4674,14.954,82.09,65,11,9.1,few clouds
29,Bluff,NZ,-46.6,168.3333,49.8,84,100,2.98,overcast clouds
30,Baykit,RU,61.67,96.37,84.0,40,62,6.29,broken clouds
31,Pochutla,MX,15.7432,-96.4661,83.25,92,99,4.07,overcast clouds
32,Hilo,US,19.7297,-155.09,75.11,94,90,5.75,mist
33,Sisimiut,GL,66.9395,-53.6735,46.99,81,100,7.23,light rain
34,Cherskiy,RU,68.75,161.3,55.26,45,0,15.88,clear sky
35,Havre-Saint-Pierre,CA,50.2334,-63.5986,59.36,88,1,8.05,clear sky
36,Nouadhibou,MR,20.931,-17.0347,69.78,88,0,18.41,clear sky
37,Punta Arenas,CL,-53.15,-70.9167,35.71,80,0,12.66,clear sky
38,Yuli,NG,9.6989,10.2744,71.46,97,98,5.86,overcast clouds
39,Cape Town,ZA,-33.9258,18.4232,61.11,27,0,2.3,clear sky
40,Port Alfred,ZA,-33.5906,26.891,59.83,31,62,12.44,broken clouds
41,Tuatapere,NZ,-46.1333,167.6833,49.82,94,100,0.85,heavy intensity rain
42,Busselton,AU,-33.65,115.3333,65.05,72,0,26.37,clear sky
43,Kapaa,US,22.0752,-159.319,85.98,78,40,4.0,light rain
44,Butaritari,KI,3.0707,172.7902,78.4,88,99,14.12,moderate rain
45,Hobart,AU,-42.8794,147.3294,57.06,54,40,6.91,light rain
46,Jamestown,US,42.097,-79.2353,71.24,85,1,1.01,clear sky
47,Sawakin,SD,19.1059,37.3321,89.65,49,65,0.85,broken clouds
48,Georgetown,MY,5.4112,100.3354,88.9,75,20,1.14,haze
49,Kodiak,US,57.79,-152.4072,56.71,72,40,8.05,scattered clouds
50,Geraldton,AU,-28.7667,114.6,67.12,72,40,13.8,scattered clouds
51,Yellowknife,CA,62.456,-114.3525,58.28,54,75,6.91,broken clouds
52,Taoudenni,ML,22.6783,-3.9836,96.46,7,0,5.77,clear sky
53,Euskirchen,DE,50.6667,6.7833,63.7,88,92,1.01,overcast clouds
54,Upernavik,GL,72.7868,-56.1549,43.14,72,100,3.49,overcast clouds
55,Aklavik,CA,68.2191,-135.0107,54.43,82,100,12.46,overcast clouds
56,Bilibino,RU,68.0546,166.4372,62.91,43,27,2.55,scattered clouds
57,Castro,BR,-24.7911,-50.0119,54.77,59,15,3.51,few clouds
58,New Norfolk,AU,-42.7826,147.0587,56.7,88,100,1.99,overcast clouds
59,Egvekinot,RU,66.3167,-179.1667,49.06,78,100,2.35,overcast clouds
60,Wuwei,CN,37.9281,102.6414,77.79,31,100,6.17,overcast clouds
61,Thinadhoo,MV,0.5333,72.9333,82.29,70,97,4.76,overcast clouds
62,Puerto Ayora,EC,-0.7393,-90.3518,71.55,88,5,8.99,clear sky
63,Chuy,UY,-33.6971,-53.4616,58.12,98,21,5.75,few clouds
64,Cape Coast,GH,5.1053,-1.2466,74.03,84,57,10.51,broken clouds
65,Lorengau,PG,-2.0226,147.2712,85.75,64,41,6.31,scattered clouds
66,Miraflores,MX,19.2167,-98.8083,63.03,86,81,3.96,broken clouds
67,Cabo San Lucas,MX,22.8909,-109.9124,88.81,72,5,8.01,clear sky
68,Caibarien,CU,22.5206,-79.4669,76.32,85,95,9.17,light rain
69,Lethem,GY,3.3803,-59.7968,74.43,92,100,6.15,overcast clouds
70,Nikolskoye,RU,59.7035,30.7861,64.8,65,71,3.69,broken clouds
71,Mattru,SL,7.6244,-11.8332,72.46,95,98,1.45,overcast clouds
72,Chokurdakh,RU,70.6333,147.9167,55.58,41,49,9.64,scattered clouds
73,Kerrville,US,30.0474,-99.1403,80.53,71,1,3.44,clear sky
74,Koslan,RU,63.4564,48.8989,50.22,82,78,4.92,broken clouds
75,Altamira,BR,-3.2033,-52.2064,71.94,66,10,1.25,clear sky
76,Houma,US,29.5958,-90.7195,84.99,84,8,4.21,clear sky
77,Richards Bay,ZA,-28.783,32.0377,54.12,86,0,7.23,clear sky
78,Mar Del Plata,AR,-38.0023,-57.5575,46.13,60,0,4.0,clear sky
79,Parrita,CR,9.5201,-84.3225,81.52,89,100,6.64,overcast clouds
80,Tasiilaq,GL,65.6145,-37.6368,41.16,82,24,3.13,few clouds
81,Murmansk,RU,68.0,34.0,43.52,75,100,8.7,overcast clouds
82,Kembe,CF,4.6228,21.8865,67.44,96,99,1.86,overcast clouds
83,Provideniya,RU,64.3833,-173.3,50.11,81,90,8.95,overcast clouds
84,Nanortalik,GL,60.1432,-45.2371,44.37,75,94,10.18,overcast clouds
85,Olinda,BR,-8.0089,-34.8553,71.33,83,75,5.75,broken clouds
86,Harper,LR,4.375,-7.7169,75.63,77,58,7.38,broken clouds
87,Moncao,PT,42.0789,-8.4808,63.75,94,7,3.47,clear sky
88,Gawan,IN,28.4333,78.35,86.76,66,99,9.62,overcast clouds
89,Xining,CN,36.6167,101.7667,61.2,64,100,6.08,overcast clouds
90,Pontarlier,FR,46.8333,6.25,57.65,95,70,2.3,broken clouds
91,Klaksvik,FO,62.2266,-6.589,50.92,95,100,7.47,overcast clouds
92,Waddan,LY,29.1614,16.139,74.73,55,0,6.78,clear sky
93,Port Hardy,CA,50.6996,-127.4199,62.78,82,75,0.0,broken clouds
94,Kiama,AU,-34.6833,150.8667,64.99,54,58,13.0,broken clouds
95,Benguela,AO,-12.5763,13.4055,68.85,75,3,2.66,clear sky
96,Narsaq,GL,60.9167,-46.05,46.62,62,100,1.79,overcast clouds
97,Worthington,US,40.0931,-83.018,77.05,86,1,0.0,clear sky
98,Tautira,PF,-17.7333,-149.15,80.62,71,3,5.91,clear sky
99,San Patricio,US,28.017,-97.5169,84.06,77,3,9.15,clear sky
100,Arraial Do Cabo,BR,-22.9661,-42.0278,69.51,77,0,25.72,clear sky
101,Bosaso,SO,11.2842,49.1816,86.18,43,90,23.02,overcast clouds
102,Fortuna,US,40.5982,-124.1573,55.92,89,100,3.98,overcast clouds
103,Hoquiam,US,46.9809,-123.8893,74.93,56,1,8.05,clear sky
104,Hambantota,LK,6.1241,81.1185,84.54,84,75,14.97,broken clouds
105,Verkhnyaya Inta,RU,65.9811,60.3094,44.49,92,100,5.64,overcast clouds
106,Port Elizabeth,ZA,-33.918,25.5701,48.49,57,0,4.61,clear sky
107,Rauma,FI,61.1272,21.5113,53.64,82,20,3.87,few clouds
108,Maldonado,UY,-34.6667,-54.9167,53.22,96,100,7.92,overcast clouds
109,Victoria,HK,22.2855,114.1577,92.97,78,59,1.01,broken clouds
110,Mandera,KE,3.9366,41.867,72.37,66,63,13.76,broken clouds
111,Atuona,PF,-9.8,-139.0333,78.13,71,4,23.58,clear sky
112,Gewane,ET,10.1664,40.6453,76.01,57,94,12.82,light rain
113,Hay River,CA,60.8156,-115.7999,60.78,55,20,6.91,few clouds
114,Muisne,EC,0.6,-80.0333,75.63,85,100,9.13,overcast clouds
115,Talaya,RU,61.3833,152.75,58.08,95,100,1.74,moderate rain
116,Saint George,US,37.1041,-113.5841,85.32,62,1,1.99,clear sky
117,Pangoa,PE,-12.1167,-73.0,69.46,76,18,2.84,few clouds
118,Mariel,CU,22.9875,-82.7536,78.94,79,100,2.01,overcast clouds
119,Faanui,PF,-16.4833,-151.75,78.08,68,38,7.87,scattered clouds
120,Usinsk,RU,65.9939,57.5281,45.95,87,100,9.89,overcast clouds
121,Iqaluit,CA,63.7506,-68.5145,49.73,87,75,5.01,broken clouds
122,Hami,CN,42.8,93.45,92.46,14,4,4.99,clear sky
123,Puerto Escondido,MX,15.85,-97.0667,85.03,65,75,4.61,broken clouds
124,Neuquen,AR,-38.9516,-68.0591,44.49,87,0,5.75,clear sky
125,Oktyabrskiy,RU,54.4815,53.471,58.91,48,2,2.44,clear sky
126,Qui Nhon,VN,13.7667,109.2333,88.02,57,99,21.81,overcast clouds
127,Hendek,TR,40.7994,30.7481,66.52,95,55,1.43,broken clouds
128,Soc Trang,VN,9.6033,105.98,85.96,62,86,12.57,overcast clouds
129,Barra Patuca,HN,15.8,-84.2833,78.91,81,93,5.75,overcast clouds
130,Luderitz,NA,-26.6481,15.1594,65.08,29,74,11.77,broken clouds
131,Port Hedland,AU,-20.3167,118.5667,78.85,25,86,10.36,overcast clouds
132,San Buenaventura,MX,27.0833,-101.5333,85.48,60,1,8.52,clear sky
133,Agutaya,PH,11.148,120.9417,83.86,81,99,16.4,overcast clouds
134,Muros,ES,42.7762,-9.0603,63.99,92,25,5.97,scattered clouds
135,Trinidad,BO,-14.8333,-64.9,74.37,52,16,3.2,few clouds
136,Bonfim,BR,3.0833,-59.95,74.75,90,100,3.22,overcast clouds
137,Peterhead,GB,57.5058,-1.7981,61.2,98,43,10.13,scattered clouds
138,Nkowakowa,ZA,-23.8878,30.2871,39.25,83,1,4.05,clear sky
139,Biak,ID,-0.9131,122.8766,80.73,73,68,6.69,broken clouds
140,Coquimbo,CL,-29.9533,-71.3436,51.53,87,0,9.22,clear sky
141,Golden Gate,US,26.1879,-81.6951,84.97,87,1,4.61,clear sky
142,East London,ZA,-33.0153,27.9116,58.14,30,0,11.5,clear sky
143,Churachandpur,IN,24.3333,93.6667,74.95,86,97,2.82,overcast clouds
144,Albany,US,42.6001,-73.9662,70.39,94,0,4.07,clear sky
145,Kamenka,RU,51.3223,42.7678,63.03,59,8,3.09,clear sky
146,Porto Novo,BJ,6.4965,2.6036,74.03,80,41,6.98,scattered clouds
147,Dunedin,NZ,-45.8742,170.5036,50.81,79,100,20.0,overcast clouds
148,San Antonio,US,29.4241,-98.4936,86.43,69,1,9.22,clear sky
149,Saint-Philippe,RE,-21.3585,55.7679,69.35,72,55,10.45,broken clouds
150,Mocuba,MZ,-16.8392,36.9856,55.56,97,2,4.47,clear sky
151,Pitlochry,GB,56.7051,-3.7343,59.58,94,6,2.91,clear sky
152,Samarai,PG,-10.6167,150.6667,79.84,73,96,15.88,overcast clouds
153,Norman Wells,CA,65.282,-126.8329,66.24,68,75,17.27,smoke
154,Nuuk,GL,64.1835,-51.7216,52.41,66,75,2.3,broken clouds
155,Corpus Christi,US,27.8006,-97.3964,84.2,86,20,4.0,few clouds
156,Lompoc,US,34.6391,-120.4579,69.57,83,90,6.91,overcast clouds
157,Maragogi,BR,-9.0122,-35.2225,73.67,86,29,10.58,scattered clouds
158,Taltal,CL,-25.4,-70.4833,57.02,77,0,0.94,clear sky
159,Laizhou,CN,37.1717,119.9214,89.38,53,48,13.15,scattered clouds
160,Surovikino,RU,48.6078,42.8486,69.1,44,31,13.42,scattered clouds
161,Braila,RO,45.2667,27.9833,55.96,69,0,0.27,clear sky
162,Haines Junction,CA,60.7522,-137.5108,60.8,48,100,4.76,overcast clouds
163,Hasaki,JP,35.7333,140.8333,86.29,66,99,20.47,overcast clouds
164,Mongoumba,CF,3.6415,18.5936,72.88,82,100,3.42,overcast clouds
165,Thompson,CA,55.7435,-97.8558,53.76,58,40,4.61,scattered clouds
166,Bingol,TR,38.8847,40.4939,73.06,34,0,5.28,clear sky
167,Emba,KZ,48.8264,58.1442,74.08,42,0,7.18,clear sky
168,Tuktoyaktuk,CA,69.4541,-133.0374,48.2,87,75,8.05,broken clouds
169,Republic,US,37.12,-93.4802,77.13,94,1,3.44,clear sky
170,Saint-Pierre,RE,-21.3393,55.4781,69.44,68,0,8.05,clear sky
171,Constitucion,CL,-35.3333,-72.4167,50.85,93,100,10.29,overcast clouds
172,Vanimo,PG,-2.6741,141.3028,83.53,63,64,2.42,broken clouds
173,Severo-Kurilsk,RU,50.6789,156.125,60.04,87,70,4.5,broken clouds
174,Tharad,IN,24.3961,71.6267,81.01,87,100,15.05,overcast clouds
175,Vangaindrano,MG,-23.35,47.6,60.64,81,41,5.28,scattered clouds
176,Kutum,SD,14.2,24.6667,72.63,72,100,4.72,overcast clouds
177,Kautokeino,NO,69.0125,23.0412,53.19,85,86,3.47,overcast clouds
178,Itoman,JP,26.1247,127.6694,88.18,87,75,13.8,broken clouds
179,Salme,NP,28.0369,85.0942,68.29,95,100,0.83,overcast clouds
180,Olafsvik,IS,64.8945,-23.7142,49.39,83,84,12.77,heavy intensity rain
181,Airai,TL,-8.9266,125.4092,77.4,22,87,3.71,overcast clouds
182,Qostanay,KZ,53.1667,63.5833,62.89,67,0,2.24,clear sky
183,Kahului,US,20.8947,-156.47,84.22,79,40,21.85,scattered clouds
184,Lebu,CL,-37.6167,-73.65,47.5,80,17,15.66,few clouds
185,Walcz,PL,53.2779,16.4712,66.11,92,80,5.77,broken clouds
186,Grafton,US,42.207,-71.6856,71.51,95,61,3.0,broken clouds
187,Ponta Do Sol,PT,32.6667,-17.1,73.0,83,3,2.68,clear sky
188,Port Blair,IN,11.6667,92.75,84.07,80,81,19.93,broken clouds
189,Karaton,ID,-6.3424,106.1045,84.36,59,2,5.06,clear sky
190,Saint-Leu,RE,-21.15,55.2833,68.83,69,15,7.02,few clouds
191,Marrakesh,MA,31.6315,-8.0083,69.87,68,0,3.44,clear sky
192,Inhambane,MZ,-23.865,35.3833,66.33,55,74,11.9,broken clouds
193,Havelock,US,34.8791,-76.9013,81.95,89,1,3.44,clear sky
194,Dudinka,RU,69.4058,86.1778,62.22,56,74,3.98,broken clouds
195,Floro,NO,61.5996,5.0328,64.36,94,100,8.05,overcast clouds
196,Moron,AR,-34.6534,-58.6198,53.96,95,0,5.46,clear sky
197,Namatanai,PG,-3.6667,152.4333,83.26,72,90,1.48,light rain
198,Belton,US,38.812,-94.5319,80.19,84,14,7.36,few clouds
199,Carnarvon,AU,-24.8667,113.6333,66.27,58,90,8.05,overcast clouds
200,Batagay,RU,67.6333,134.6333,68.45,47,89,4.07,overcast clouds
201,Rocha,UY,-34.4833,-54.3333,56.59,95,86,10.63,overcast clouds
202,Yenagoa,NG,4.9247,6.2642,71.19,87,81,4.16,broken clouds
203,Talnakh,RU,69.4865,88.3972,62.62,83,99,3.42,overcast clouds
204,Saint Austell,GB,50.3383,-4.7658,60.1,100,1,5.75,clear sky
205,Acapulco,MX,16.8634,-99.8901,81.7,86,79,8.97,broken clouds
206,Dikson,RU,73.5069,80.5464,45.68,73,45,5.41,scattered clouds
207,Yar-Sale,RU,66.8333,70.8333,54.05,63,74,5.86,broken clouds
208,Sao Miguel Do Araguaia,BR,-13.275,-50.1628,72.1,42,54,4.47,broken clouds
209,Kinsale,IE,51.7075,-8.5306,60.17,88,20,9.22,few clouds
210,Breytovo,RU,58.2993,37.8617,60.44,67,72,5.46,broken clouds
211,Tairua,NZ,-37.0167,175.85,60.1,84,19,10.0,few clouds
212,Urcos,PE,-13.6861,-71.6228,47.5,88,12,5.23,few clouds
213,Kargasok,RU,59.0556,80.8572,71.58,71,100,7.14,light rain
214,Sao Filipe,CV,14.8961,-24.4956,73.71,76,83,4.61,broken clouds
215,Souillac,MU,-20.5167,57.5167,70.18,68,40,11.5,scattered clouds
216,Praia,CV,14.9215,-23.5087,75.74,73,20,8.05,few clouds
217,Vardo,NO,70.3705,31.1107,44.8,75,63,21.99,broken clouds
218,Mujiayingzi,CN,42.1167,118.7833,77.04,66,100,8.46,overcast clouds
219,Bethel,US,41.3712,-73.414,75.04,91,0,2.57,clear sky
220,Naze,JP,28.3667,129.4833,83.32,91,100,18.12,overcast clouds
221,Palmas Bellas,PA,9.2319,-80.0867,75.34,92,100,4.52,overcast clouds
222,Junin,AR,-34.5838,-60.9433,46.17,67,0,6.49,clear sky
223,Pevek,RU,69.7008,170.3133,36.07,88,74,10.96,broken clouds
224,Herat,AF,34.5,62.0,86.59,13,6,18.99,clear sky
225,Ixtapa,MX,20.7,-105.2,83.23,83,75,0.0,broken clouds
226,Longyearbyen,SJ,78.2186,15.6401,44.44,81,75,5.75,broken clouds
227,Ancud,CL,-41.8697,-73.8203,36.93,78,16,7.4,few clouds
228,Salalah,OM,17.0151,54.0924,78.89,83,40,6.91,scattered clouds
229,Pontiac,US,42.6389,-83.2911,76.91,71,75,1.01,broken clouds
230,Mangrol,IN,21.1167,70.1167,78.85,90,100,20.83,overcast clouds
231,Pisco,PE,-13.7,-76.2167,61.02,82,1,4.61,clear sky
232,Ponta Delgada,PT,37.7333,-25.6667,66.92,94,40,6.91,light intensity drizzle
233,Novikovo,RU,51.1537,37.8879,62.1,65,0,3.22,clear sky
234,Opuwo,NA,-18.0607,13.84,55.54,48,0,8.81,clear sky
235,Cidreira,BR,-30.1811,-50.2056,67.41,69,88,5.3,overcast clouds
236,Alofi,NU,-19.0595,-169.9187,82.29,69,75,4.61,broken clouds
237,Santa Maria,BR,-29.6842,-53.8069,81.7,39,0,10.36,clear sky
238,Suruc,TR,36.9761,38.425,86.2,37,0,5.82,clear sky
239,Rawson,AR,-43.3002,-65.1023,42.06,51,2,13.02,clear sky
240,Caravelas,BR,-17.7125,-39.2481,67.21,90,9,4.5,clear sky
241,Flinders,AU,-34.5833,150.8552,64.8,56,71,3.0,broken clouds
242,Nynashamn,SE,58.9034,17.9479,61.11,85,64,7.72,broken clouds
243,Sao Joao Da Barra,BR,-21.6403,-41.0511,69.24,76,0,14.81,clear sky
244,Bambous Virieux,MU,-20.3428,57.7575,70.05,68,40,11.5,scattered clouds
245,Qaanaaq,GL,77.484,-69.3632,37.92,72,100,2.17,overcast clouds
246,Miyang,CN,24.4042,103.4428,68.05,86,100,0.72,overcast clouds
247,Tiksi,RU,71.6872,128.8694,57.07,75,83,12.1,light rain
248,Berlevag,NO,70.8578,29.0864,44.6,80,99,17.29,overcast clouds
249,Aberdeen,GB,57.1437,-2.0981,61.48,100,90,6.91,overcast clouds
250,Iwanai,JP,42.9744,140.5089,86.05,55,6,4.7,clear sky
251,Pacific Grove,US,36.6177,-121.9166,70.14,89,75,3.0,broken clouds
252,Whyalla,AU,-33.0333,137.5833,66.09,39,17,16.11,few clouds
253,Grand Gaube,MU,-20.0064,57.6608,70.2,72,0,4.0,clear sky
254,Aksarka,RU,66.5606,67.7975,51.96,70,95,10.63,overcast clouds
255,Jaru,BR,-10.4389,-62.4664,75.72,51,40,0.51,scattered clouds
256,Tutoia,BR,-2.7619,-42.2744,77.23,81,4,7.99,clear sky
257,Nabagram,IN,22.2881,88.5092,89.58,74,100,9.15,overcast clouds
258,Semnan,IR,35.5729,53.3971,84.25,38,0,5.41,clear sky
259,Pacifica,US,37.6138,-122.4869,77.58,86,75,1.99,broken clouds
260,Altay,CN,47.8667,88.1167,78.15,39,36,4.16,scattered clouds
261,Dawei,MM,14.0833,98.2,76.75,94,100,2.66,light rain
262,Zavodouspenskoye,RU,56.8626,65.0155,55.62,56,10,8.23,clear sky
263,Mwene-Ditu,CD,-7.0,23.45,64.09,41,31,9.22,scattered clouds
264,Sarkand,KZ,45.41,79.9186,89.96,15,0,4.79,clear sky
265,Cozumel,MX,20.5083,-86.9458,81.0,88,100,3.0,overcast clouds
266,Tolaga Bay,NZ,-38.3667,178.3,54.5,94,100,23.51,light rain
267,Vila Velha,BR,-20.3297,-40.2925,62.55,94,0,0.0,clear sky
268,Manali,IN,13.1667,80.2667,87.89,57,100,15.86,overcast clouds
269,Cootamundra,AU,-34.65,148.0333,51.91,82,98,13.27,overcast clouds
270,Gasa,PS,31.5,34.4667,78.78,78,26,5.73,scattered clouds
271,Mahebourg,MU,-20.4081,57.7,70.09,68,40,11.5,scattered clouds
272,Atambua,ID,-9.1061,124.8925,83.73,39,96,3.6,overcast clouds
273,Diplo,PK,24.4667,69.584,84.0,78,100,20.11,overcast clouds
274,Portland,US,45.5234,-122.6762,85.44,50,20,3.0,few clouds
275,Eten,PE,-6.9081,-79.8642,64.96,85,13,12.17,few clouds
276,Broken Hill,AU,-31.95,141.4333,60.51,41,4,13.8,clear sky
277,Nishihara,JP,26.1842,127.7558,87.46,89,75,11.5,broken clouds
278,Burns Lake,CA,54.2331,-125.7533,60.22,52,100,4.45,overcast clouds
279,Bluffton,US,32.2371,-80.8604,81.95,83,1,4.61,clear sky
280,Ilulissat,GL,69.2167,-51.1,50.02,43,100,12.66,overcast clouds
281,Itarema,BR,-2.9248,-39.9167,77.56,82,6,15.19,clear sky
282,Nayoro,JP,44.3506,142.4578,92.5,46,41,2.51,scattered clouds
283,Alta Floresta,BR,-9.8756,-56.0861,71.38,49,4,2.84,clear sky
284,Chino Valley,US,34.7575,-112.4538,69.82,83,90,5.01,overcast clouds
285,Henties Bay,NA,-22.116,14.2845,73.0,33,39,25.21,scattered clouds
286,Sitka,US,57.0531,-135.33,57.09,77,75,4.61,light rain
287,Mount Gambier,AU,-37.8333,140.7667,57.11,88,75,17.27,light intensity shower rain
288,Saint-Francois,FR,46.4154,3.9054,66.18,90,75,4.61,broken clouds
289,Zhigansk,RU,66.7697,123.3711,75.92,54,14,4.38,few clouds
290,Purworejo,ID,-6.7872,111.9224,81.21,65,4,5.23,clear sky
291,Milkovo,RU,54.7167,158.6167,80.98,48,29,4.85,scattered clouds
292,Puerto Padre,CU,21.195,-76.6028,72.61,88,99,5.75,overcast clouds
293,Stornoway,GB,58.2093,-6.3865,55.92,94,90,6.91,overcast clouds
294,Birjand,IR,32.8663,59.2211,84.67,14,20,9.22,few clouds
295,Bagotville,AU,-28.9833,153.4167,69.82,33,65,4.97,broken clouds
296,Listowel,IE,52.4464,-9.485,62.31,97,99,6.38,overcast clouds
297,Khatanga,RU,71.9667,102.5,61.41,56,77,1.66,broken clouds
298,Leningradskiy,RU,69.3833,178.4167,38.84,87,99,6.02,overcast clouds
299,San Quintin,MX,30.4833,-115.95,67.24,86,100,8.16,overcast clouds
300,Solnechnyy,RU,50.7214,136.6319,85.77,48,100,6.46,overcast clouds
301,Kaya,BF,13.0917,-1.0844,77.83,74,96,11.21,moderate rain
302,La Serena,CL,-29.9078,-71.2542,51.31,87,0,9.22,clear sky
303,Greensburg,US,40.3015,-79.5389,75.7,89,1,0.0,clear sky
304,Kenai,US,60.5544,-151.2583,65.03,75,75,10.36,broken clouds
305,Westport,US,41.1415,-73.3579,76.95,94,20,1.01,light rain
306,Touros,BR,-5.1989,-35.4608,72.5,90,3,9.48,clear sky
307,Thaton,MM,16.9206,97.3714,78.22,89,100,10.45,overcast clouds
308,Dalmeny,CA,52.3334,-106.7679,67.68,52,75,4.61,broken clouds
309,Asopos,GR,36.7333,22.8667,74.7,45,0,7.7,clear sky
310,Port-Gentil,GA,-0.7193,8.7815,75.47,81,100,7.81,overcast clouds
311,Tevriz,RU,57.509,72.4042,60.69,57,23,11.48,few clouds
312,Kungurtug,RU,50.5994,97.5228,71.76,51,80,2.53,broken clouds
313,Husavik,IS,66.0449,-17.3389,51.71,66,0,15.35,clear sky
314,Shieli,KZ,44.1667,66.75,90.16,32,0,15.48,clear sky
315,Asfi,MA,32.2994,-9.2372,68.02,91,0,11.7,clear sky
316,Lahaina,US,20.8783,-156.6825,84.2,91,20,10.89,few clouds
317,Dhadar,IN,28.3305,75.0632,88.95,65,93,11.32,light rain
318,Kingman,US,35.1894,-114.053,76.14,71,1,7.0,clear sky
319,Santa Rosa,PH,14.3122,121.1114,89.58,66,100,19.17,overcast clouds
320,Kidal,ML,18.4411,1.4078,89.65,39,100,8.37,overcast clouds
321,Bouca,CF,6.5105,18.2733,70.75,90,100,6.13,overcast clouds
322,Scarborough,GB,54.2797,-0.4044,58.15,87,96,1.99,overcast clouds
323,Komsomolskiy,UZ,40.4272,71.7189,92.12,25,0,6.91,clear sky
324,Saint-Denis,FR,48.9167,2.3333,63.09,92,75,5.75,broken clouds
325,Tselinnoye,RU,53.0833,85.6667,72.72,63,85,10.58,overcast clouds
326,Rio Brilhante,BR,-21.8019,-54.5464,71.4,43,2,5.39,clear sky
327,La Rioja,ES,42.25,-2.5,58.78,92,70,3.62,broken clouds
328,Pangnirtung,CA,66.1451,-65.7125,50.67,89,100,4.21,overcast clouds
329,Ventspils,LV,57.3894,21.5606,57.13,100,0,0.0,clear sky
330,Praia Da Vitoria,PT,38.7333,-27.0667,68.76,88,75,11.65,broken clouds
331,San Ignacio,BZ,17.1561,-89.0714,80.74,78,0,0.0,clear sky
332,San Jose,US,37.3394,-121.895,79.88,60,75,6.91,broken clouds
333,Katsuura,JP,35.1333,140.3,86.18,61,72,19.75,broken clouds
334,Boden,SE,65.8252,21.6886,60.8,85,29,1.16,scattered clouds
335,Katherine,AU,-14.4667,132.2667,86.32,30,100,9.22,overcast clouds
336,Bandarbeyla,SO,9.4942,50.8122,78.08,69,83,23.85,broken clouds
337,Te Anau,NZ,-45.4167,167.7167,46.33,94,100,1.9,overcast clouds
338,Wasilla,US,61.5814,-149.4394,67.55,59,40,0.0,scattered clouds
339,Novokizhinginsk,RU,51.6115,109.5917,65.84,60,99,4.83,overcast clouds
340,Shentala,RU,54.45,51.4833,59.11,54,60,3.18,broken clouds
341,Lincoln,US,40.8,-96.667,75.52,82,1,0.0,clear sky
342,Bukavu,CD,-2.5083,28.8608,57.9,87,83,2.06,broken clouds
343,Tigil,RU,57.8,158.6667,72.41,65,84,15.21,broken clouds
344,Chone,EC,-0.6833,-80.1,72.52,90,91,1.99,overcast clouds
345,Batemans Bay,AU,-35.7167,150.1833,63.1,46,72,11.97,broken clouds
346,Kolda,SN,12.8833,-14.95,77.31,94,40,0.0,scattered clouds
347,Yumen,CN,40.2833,97.2,85.98,20,4,14.23,clear sky
348,Andenes,NO,69.3143,16.1194,53.47,100,90,3.44,mist
349,Namibe,AO,-15.1961,12.1522,69.22,59,0,8.08,clear sky
350,Muroto,JP,33.2833,134.15,86.04,78,4,6.33,clear sky
351,San Francisco,US,37.7749,-122.4194,78.78,86,75,4.0,broken clouds
352,Chapais,CA,49.7834,-74.8492,55.18,92,82,3.78,broken clouds
353,Motala,SE,58.5371,15.0365,64.17,88,81,7.18,broken clouds
354,Kavieng,PG,-2.5744,150.7967,83.25,69,28,3.71,scattered clouds
355,Aranos,NA,-24.1333,19.1167,44.4,62,40,14.2,scattered clouds
356,Huarmey,PE,-10.0681,-78.1522,64.87,87,1,10.11,clear sky
357,Farmington,US,36.7281,-108.2187,79.7,42,20,4.61,few clouds
358,Dhidhdhoo,MV,6.8833,73.1,82.38,76,91,16.8,overcast clouds
359,Mirnyy,RU,62.5353,113.9611,82.96,34,2,5.46,clear sky
360,Tazovskiy,RU,67.4667,78.7,52.09,70,99,6.17,overcast clouds
361,Buarcos,PT,40.166,-8.8768,65.66,98,51,7.47,broken clouds
362,Jalingo,NG,8.8833,11.3667,72.91,91,100,5.82,overcast clouds
363,Abonnema,NG,4.7084,6.7931,72.37,83,71,4.52,broken clouds
364,Barkhan,PK,29.8977,69.5256,88.52,42,56,3.53,broken clouds
365,Vulcan,RO,45.3833,23.2667,58.86,78,89,3.29,overcast clouds
366,Saskylakh,RU,71.9167,114.0833,59.36,57,93,15.23,overcast clouds
367,Tual,ID,-5.6667,132.75,79.97,77,82,20.67,broken clouds
368,Merauke,ID,-8.4667,140.3333,80.55,69,95,10.89,overcast clouds
369,San Cristobal,VE,7.7669,-72.225,68.18,99,98,2.46,overcast clouds
370,Sokoto,NG,13.0609,5.239,75.0,79,100,9.55,overcast clouds
371,Lifford,IE,54.8319,-7.4836,59.58,89,88,5.84,overcast clouds
372,Quatre Cocos,MU,-20.2078,57.7625,69.91,59,19,12.35,few clouds
373,Edd,ER,13.9297,41.6925,88.14,64,100,5.28,overcast clouds
374,Asau,RO,46.4333,26.4,63.75,79,4,3.47,clear sky
375,Xiaoweizhai,CN,26.1903,107.5125,83.03,64,1,1.83,light rain
376,Novo Aripuana,BR,-5.1206,-60.3797,75.96,62,91,1.9,overcast clouds
377,Kamaishi,JP,39.2667,141.8833,86.95,68,70,12.95,light rain
378,Kaitangata,NZ,-46.2817,169.8464,52.93,80,100,4.12,light rain
379,Finschhafen,PG,-6.6024,147.8681,77.7,92,99,11.14,heavy intensity rain
380,Mandalgovi,MN,45.7625,106.2708,65.66,59,100,9.37,overcast clouds
381,Ruwi,OM,23.5996,58.5507,98.29,58,26,5.23,scattered clouds
382,Biltine,TD,14.5333,20.9167,75.78,73,100,10.47,overcast clouds
383,Dukat,RU,62.55,155.55,55.0,95,100,1.63,overcast clouds
384,Basco,PH,20.4487,121.9702,82.49,88,100,28.03,overcast clouds
385,Kon Tum,VN,14.35,108.0,74.52,89,100,6.06,overcast clouds
386,Guerrero Negro,MX,27.9769,-114.0611,68.77,81,2,15.84,clear sky
387,Clifton,US,40.8584,-74.1638,79.65,82,1,1.01,clear sky
388,Ena,JP,35.4498,137.4128,90.84,60,42,5.23,scattered clouds
389,Tocopilla,CL,-22.092,-70.1979,59.49,78,40,7.07,scattered clouds
390,Kuching,MY,1.55,110.3333,88.02,74,40,4.61,scattered clouds
391,Wajid,SO,3.8093,43.2471,67.59,85,27,16.98,scattered clouds
392,Lagoa,PT,39.05,-27.9833,68.81,84,14,12.19,few clouds
393,Krasnoselkup,RU,65.7,82.4667,60.03,74,100,13.85,light rain
394,Kavaratti,IN,10.5669,72.642,81.52,79,100,20.47,overcast clouds
395,Aksu,CN,41.1231,80.2644,92.32,15,0,5.35,clear sky
396,Nhulunbuy,AU,-12.2333,136.7667,84.81,51,20,18.41,few clouds
397,Nome,US,64.5011,-165.4064,50.16,87,90,9.22,light rain
398,Aloleng,PH,16.1307,119.7824,84.09,82,100,20.04,overcast clouds
399,Ribeira Grande,PT,38.5167,-28.7,69.89,85,5,16.22,clear sky
400,High Level,CA,58.5169,-117.136,64.51,72,40,5.75,scattered clouds
401,Surt,LY,31.2089,16.5887,78.28,70,0,10.38,clear sky
402,Shirokiy,RU,49.758,129.523,69.44,99,100,4.09,overcast clouds
403,Omsukchan,RU,62.5333,155.8,54.54,96,100,3.44,overcast clouds
404,Micomeseng,GQ,2.1462,10.6164,66.9,96,98,1.92,overcast clouds
405,Alekseyevsk,RU,57.8406,108.3492,83.28,35,15,7.2,few clouds
406,Mariestad,SE,58.7097,13.8237,64.87,90,65,7.7,broken clouds
407,Isangel,VU,-19.55,169.2667,80.71,69,75,6.91,broken clouds
408,Antsohihy,MG,-14.8796,47.9875,68.07,59,60,10.56,broken clouds
409,Puerto Colombia,CO,10.9878,-74.9547,77.09,79,100,2.33,overcast clouds
410,Kem,RU,64.9555,34.5793,56.8,85,98,7.14,overcast clouds
411,Rabak,SD,13.1809,32.74,73.38,87,85,14.54,overcast clouds
412,Timra,SE,62.487,17.3257,58.68,96,6,2.3,clear sky
413,Akom,CM,2.6678,12.7109,65.39,99,98,3.58,overcast clouds
414,Puri,IN,19.8,85.85,87.39,69,100,9.6,light rain
415,Yambio,SS,4.5721,28.3955,66.67,98,100,2.26,light rain
416,Tilichiki,RU,60.4667,166.1,53.38,97,100,7.02,overcast clouds
417,Sao Gabriel Da Cachoeira,BR,-0.1303,-67.0892,71.56,98,99,1.83,overcast clouds
418,Barcelona,ES,41.3888,2.159,76.71,68,20,1.99,few clouds
419,Dolzhanskaya,RU,46.6311,37.8039,74.91,63,10,18.86,clear sky
420,Haapiti,PF,-17.5667,-149.8667,80.33,67,1,6.91,clear sky
421,Saldanha,ZA,-33.0117,17.9442,51.85,42,100,19.91,overcast clouds
422,Sergeyevka,KZ,53.88,67.4158,59.9,47,0,11.43,clear sky
423,Irtyshskiy,RU,58.3333,68.1333,57.25,54,6,13.67,clear sky
424,Popondetta,PG,-8.7537,148.2534,73.83,97,100,2.48,overcast clouds
425,Kholtoson,RU,50.2981,103.3097,70.66,48,75,2.33,broken clouds
426,Bathsheba,BB,13.2167,-59.5167,77.61,94,75,4.61,broken clouds
427,Mariental,NA,-24.6333,17.9667,47.95,57,39,11.92,scattered clouds
428,Mount Vernon,US,40.9126,-73.8371,79.84,87,1,5.01,clear sky
429,Petrovskaya,RU,45.4314,37.955,68.49,49,0,11.77,clear sky
430,Vryburg,ZA,-26.9566,24.7284,34.57,60,52,6.29,broken clouds
431,Podosinovets,RU,60.2776,47.0659,57.56,71,80,7.27,broken clouds
432,Gat,IL,31.61,34.7642,78.4,84,27,3.49,scattered clouds
433,Krasnyy Profintern,RU,57.7446,40.435,59.02,59,98,5.19,overcast clouds
434,Half Moon Bay,US,37.4636,-122.4286,77.76,77,75,1.01,broken clouds
435,Grindavik,IS,63.8424,-22.4338,48.67,93,75,20.71,broken clouds
436,Isparta,TR,38.0,31.0,48.96,69,5,7.54,clear sky
437,Clyde River,CA,70.4692,-68.5914,35.83,93,90,3.44,light rain
438,Yarmouth,US,41.7057,-70.2286,73.96,91,90,5.99,overcast clouds
439,Skjervoy,NO,70.0311,20.9714,50.85,97,100,0.4,overcast clouds
440,Hvide Sande,DK,56.0045,8.1294,63.68,91,30,11.92,scattered clouds
441,Warrington,GB,53.3925,-2.5802,62.71,88,46,6.91,scattered clouds
442,Meulaboh,ID,4.1363,96.1285,83.23,71,90,0.49,overcast clouds
443,Carazinho,BR,-28.2839,-52.7864,66.9,58,98,13.69,overcast clouds
444,Machaneng,BW,-23.1862,27.4886,43.18,78,0,5.75,clear sky
445,Fare,PF,-16.7,-151.0167,77.81,68,26,7.36,scattered clouds
446,Yulara,AU,-25.2406,130.9889,73.24,15,2,12.66,clear sky
447,Moroni,KM,-11.7022,43.2551,73.58,78,30,15.57,light rain
448,Coihaique,CL,-45.5752,-72.0662,31.95,80,0,4.61,clear sky
449,Vaxjo,SE,56.8777,14.8091,64.45,88,75,4.61,broken clouds
450,Itaborai,BR,-22.7444,-42.8594,66.51,73,0,4.94,clear sky
451,Karasuk,RU,53.7377,78.0403,64.42,83,51,14.43,broken clouds
452,Zaragoza,ES,41.6561,-0.8773,69.03,63,20,8.99,light rain
453,Rio De Janeiro,BR,-22.9028,-43.2075,66.9,82,0,4.61,clear sky
454,Kongoussi,BF,13.3258,-1.5347,78.91,72,100,10.89,overcast clouds
455,Lensk,RU,60.7253,114.9278,86.27,34,7,3.11,clear sky
456,Chara,RU,56.9064,118.2631,69.96,47,12,9.08,few clouds
457,Kouroussa,GN,10.65,-9.8833,69.94,98,69,6.78,light rain
458,Aykhal,RU,66.0,111.5,82.24,40,8,11.21,clear sky
459,Fort Myers Beach,US,26.452,-81.9481,86.0,86,40,0.0,scattered clouds
460,Comodoro Rivadavia,AR,-45.8667,-67.5,42.66,49,0,14.97,clear sky
461,Tarko-Sale,RU,64.9225,77.785,51.35,95,100,13.85,moderate rain
462,Lavrentiya,RU,65.5833,-171.0,44.6,98,100,5.19,overcast clouds
463,General Roca,AR,-39.0333,-67.5833,45.0,70,56,9.42,broken clouds
464,Weligama,LK,5.9667,80.4167,80.94,83,86,12.88,overcast clouds
465,Manakara,MG,-22.1333,48.0167,61.57,78,69,5.37,light rain
466,Takaka,NZ,-40.85,172.8,57.56,93,98,9.53,overcast clouds
467,Idanre,NG,7.1127,5.1159,66.13,97,73,1.83,broken clouds
468,Saraikela,IN,22.7167,85.95,85.64,70,100,12.12,overcast clouds
469,Kupang,ID,-10.1667,123.5833,84.78,54,20,8.05,few clouds
470,Camana,PE,-16.6228,-72.7111,60.71,86,61,5.82,broken clouds
471,Orcopampa,PE,-15.2661,-72.3417,40.3,46,26,2.84,scattered clouds
472,Polunochnoye,RU,60.8697,60.4153,57.13,58,53,7.92,broken clouds
473,Mantua,IT,45.1667,10.7833,74.01,78,90,3.06,overcast clouds
474,Sola,VU,-13.8833,167.55,84.87,74,75,5.75,broken clouds
475,Phatthalung,TH,7.5,100.0833,87.75,63,99,5.48,overcast clouds
476,Mago,RU,53.2514,140.1822,84.79,52,100,6.04,overcast clouds
477,Goderich,CA,43.7501,-81.7165,68.92,88,0,3.44,clear sky
478,The Valley,AI,18.217,-63.0578,82.26,83,74,19.69,broken clouds
479,Palmer,US,42.1584,-72.3287,72.84,85,40,4.61,scattered clouds
480,Semey,KZ,50.4111,80.2275,80.82,44,40,17.9,scattered clouds
481,Shingu,JP,33.7333,135.9833,86.99,64,0,6.15,clear sky
482,Patnos,TR,39.2336,42.8634,55.63,33,0,2.68,clear sky
483,Lakes Entrance,AU,-37.8811,147.981,67.17,51,47,14.2,scattered clouds
484,Arlit,NE,18.7369,7.3853,93.81,20,100,8.81,overcast clouds
485,Svetlyy,RU,54.675,20.1347,60.85,75,100,9.93,overcast clouds
486,Cocorit,MX,27.5833,-109.9667,88.27,51,2,8.52,clear sky
487,Edson,CA,53.5835,-116.4356,55.54,100,90,8.05,moderate rain
488,Tuntum,BR,-5.2581,-44.6489,72.41,48,9,4.18,clear sky
489,Sayyan,YE,15.1718,44.3244,60.49,74,62,1.92,broken clouds
490,Westerland,DE,54.9079,8.3033,66.22,94,20,9.22,few clouds
491,Beyneu,KZ,45.3167,55.2,84.42,23,23,13.69,few clouds
492,Sinnamary,GF,5.3833,-52.95,77.2,87,100,6.08,overcast clouds
493,Aras,ES,42.5617,-2.356,63.01,63,90,2.3,overcast clouds
494,Ornskoldsvik,SE,63.2909,18.7153,58.15,94,70,3.44,broken clouds
495,Belaya Gora,RU,68.5333,146.4167,61.93,32,8,9.86,clear sky
496,Karpogory,RU,64.0019,44.4451,46.31,96,96,4.5,overcast clouds
497,Lebowakgomo,ZA,-24.2,29.5,38.3,86,0,2.08,clear sky
498,Shawnee,US,39.05,-95.7669,79.12,83,1,0.0,clear sky
499,Belmonte,BR,-15.8631,-38.8828,66.7,85,63,7.34,broken clouds
500,Molokovo,RU,58.1661,36.7628,59.58,66,100,3.91,overcast clouds
501,Vestmannaeyjar,IS,63.4427,-20.2734,50.49,79,98,17.38,overcast clouds
502,Chihuahua,MX,28.5,-106.0,72.43,45,97,6.64,overcast clouds
503,Guayata,CO,4.9642,-73.4875,61.05,98,92,2.48,overcast clouds
504,Oranjestad,AW,12.524,-70.027,82.35,83,40,10.36,scattered clouds
505,Algodones,MX,20.3888,-105.4773,79.14,88,82,4.92,broken clouds
506,Palana,RU,59.1167,159.9667,55.29,87,95,14.29,overcast clouds
507,Marzuq,YE,14.4,46.4667,72.23,79,57,6.87,broken clouds
508,Ipira,BR,-12.1583,-39.7372,63.07,92,0,5.37,clear sky
509,Kathmandu,NP,27.7167,85.3167,73.62,94,75,2.3,broken clouds
510,Laramie,US,41.3114,-105.5911,69.73,60,1,4.0,clear sky
511,Taperoa,BR,-7.2075,-36.8267,65.17,96,43,9.8,scattered clouds
512,Moussoro,TD,13.6408,16.4901,77.45,75,100,4.5,overcast clouds
513,Ulladulla,AU,-35.35,150.4667,61.88,54,83,14.76,broken clouds
514,Whitehorse,CA,60.7161,-135.0538,66.97,35,75,3.0,broken clouds
515,Wewak,PG,-3.5534,143.6268,87.73,59,40,3.47,scattered clouds
516,Beringovskiy,RU,63.05,179.3167,49.75,93,99,6.13,overcast clouds
517,Colesberg,ZA,-30.72,25.0972,34.84,43,39,5.3,scattered clouds
518,Honiara,SB,-9.4333,159.95,83.95,72,88,7.87,overcast clouds
519,Rakhiv,UA,48.0526,24.2009,64.89,70,70,3.53,broken clouds
520,Nicoya,CR,10.1483,-85.452,74.75,89,100,2.55,overcast clouds
521,Bam,IR,29.106,58.357,90.01,11,39,21.54,scattered clouds
522,Korla,CN,41.7597,86.1469,94.53,11,0,12.77,clear sky
523,San Policarpo,PH,12.1791,125.5072,90.64,55,100,11.83,overcast clouds
524,Dakar,SN,14.6937,-17.4441,80.73,78,40,4.61,scattered clouds
525,Port Moresby,PG,-9.4431,147.1797,80.02,83,75,5.75,haze
526,Dingle,PH,10.9995,122.6711,87.71,65,97,16.42,overcast clouds
527,Okhotsk,RU,59.3833,143.3,58.37,91,99,0.94,overcast clouds
528,Acari,PE,-15.4311,-74.6158,63.43,80,22,3.42,few clouds
529,Vao,NC,-22.6667,167.4833,70.59,63,87,18.79,overcast clouds
530,Garmsar,IR,35.2182,52.3409,88.84,30,0,7.05,clear sky
531,Hualmay,PE,-11.0964,-77.6139,63.41,85,13,10.96,few clouds
532,Silistea,RO,44.3833,25.35,67.39,61,3,5.21,clear sky
533,Chodavaram,IN,17.8333,82.95,84.04,57,58,6.82,broken clouds
534,Klyuchi,RU,52.2667,79.1667,77.56,56,0,15.7,clear sky
535,Guanica,PR,17.9716,-66.908,80.94,85,100,1.01,overcast clouds
536,Cota,CO,4.8094,-74.098,49.98,93,40,4.61,scattered clouds
537,Tabou,CI,4.423,-7.3528,76.17,75,51,7.76,broken clouds
538,Bengkulu,ID,-3.8004,102.2655,83.79,58,2,2.33,clear sky
539,Mbanza-Ngungu,CD,-5.25,14.8667,63.88,87,62,4.16,broken clouds
540,Wamba,NG,8.9333,8.6,70.54,96,99,1.86,light rain
541,Daura,NG,11.5538,11.4085,73.89,83,100,8.52,light rain
542,Zdvinsk,RU,54.7021,78.661,65.08,82,100,14.43,overcast clouds
543,Jiwani,PK,25.05,61.7417,83.25,87,54,8.23,broken clouds
544,Mayumba,GA,-3.432,10.6554,69.35,95,32,3.58,scattered clouds
545,Necochea,AR,-38.5473,-58.7368,44.01,87,4,9.64,clear sky
546,Huilong,CN,31.8111,121.655,80.04,92,100,29.42,light rain
547,Laguna,US,38.421,-121.4238,94.82,32,1,5.01,clear sky
548,Andros,GR,37.8333,24.9333,76.41,69,0,13.0,clear sky
549,Ouango,CF,4.3133,22.5552,69.64,98,100,1.12,light rain
550,Valleyview,CA,55.0667,-117.2859,63.43,60,99,6.29,overcast clouds
551,Abu Samrah,SY,35.3029,37.1841,77.18,59,0,4.47,clear sky
552,Sur,OM,22.5667,59.5289,90.48,56,95,8.93,overcast clouds
553,Russell,US,32.3502,-85.1999,81.63,91,40,0.0,scattered clouds
554,Kaeo,NZ,-35.1,173.7833,58.17,84,38,11.12,scattered clouds
555,Riyadh,SA,24.6877,46.7219,89.65,22,0,2.3,clear sky
556,Lata,PT,40.1629,-8.3327,66.04,95,95,2.84,overcast clouds
557,Cody,US,44.5263,-109.0565,85.3,24,1,4.61,clear sky
558,Am Timan,TD,11.0297,20.2827,71.17,89,100,5.44,overcast clouds
559,Karratha,AU,-20.7377,116.8463,79.18,31,70,3.58,broken clouds
560,Puebla,MX,18.8333,-98.0,60.17,75,100,8.61,overcast clouds
561,New Glasgow,CA,45.5834,-62.6486,62.78,82,100,7.38,overcast clouds
562,Alice Springs,AU,-23.7,133.8833,74.21,21,6,11.99,clear sky
563,Qaqortoq,GL,60.7167,-46.0333,46.9,71,99,0.54,overcast clouds
564,Bull Savanna,JM,17.8868,-77.5902,76.5,85,64,6.24,broken clouds
565,Camacha,PT,33.0833,-16.3333,69.53,94,75,8.05,broken clouds
566,Belyy Yar,RU,53.6039,91.3903,73.29,73,0,6.71,clear sky
567,Sesheke,ZM,-17.4759,24.2968,46.72,68,0,8.12,clear sky
568,Luba,GQ,3.4568,8.5547,75.09,80,87,6.51,overcast clouds
569,Kattivakkam,IN,13.2167,80.3167,87.89,60,100,15.68,overcast clouds
570,Quibor,VE,9.9287,-69.6201,71.28,92,100,1.03,overcast clouds
571,Yakovlevka,RU,44.425,133.4772,91.92,40,99,3.47,overcast clouds
572,Felanitx,ES,39.4696,3.1483,74.01,80,60,7.45,broken clouds
573,Uige,AO,-7.6087,15.0613,60.71,61,24,1.5,few clouds
574,Fort Saint James,CA,54.4333,-124.25,62.01,67,100,2.37,overcast clouds
575,Ekhabi,RU,53.5102,142.9671,78.51,65,100,10.09,overcast clouds
576,Dunmore Town,BS,25.5,-76.65,82.62,76,88,14.79,overcast clouds
577,Tuyen Quang,VN,21.8233,105.2181,79.21,84,100,2.28,overcast clouds
578,Mananjary,MG,-21.2167,48.3333,63.36,78,100,7.92,overcast clouds
579,Blackwater,AU,-23.5833,148.8833,71.2,22,13,1.34,few clouds
580,Izumo,JP,35.3667,132.7667,91.29,55,20,6.91,few clouds
581,Soyo,AO,-6.1349,12.3689,70.66,94,21,3.62,few clouds
582,Lucapa,AO,-8.4192,20.7447,60.46,40,100,4.47,overcast clouds
583,Alcobendas,ES,40.5475,-3.642,69.37,91,0,3.44,clear sky
584,Araouane,ML,18.9048,-3.5265,93.79,34,14,11.63,few clouds
585,Sambava,MG,-14.2667,50.1667,65.34,83,26,11.79,scattered clouds
586,Troitsko-Pechorsk,RU,62.7084,56.1964,53.69,76,100,5.03,overcast clouds
587,Babayurt,RU,43.6002,46.7789,75.94,65,0,6.69,clear sky
588,Qiqihar,CN,47.3408,123.9672,68.79,95,100,5.64,moderate rain
589,Williams Lake,CA,52.1415,-122.1445,65.77,65,75,2.3,broken clouds
590,Songjianghe,CN,42.1859,127.479,88.93,43,26,4.34,scattered clouds
591,Marsa Matruh,EG,31.3525,27.2453,75.81,70,0,7.34,clear sky
592,Luanda,AO,-8.8368,13.2343,68.0,94,40,3.44,scattered clouds
593,Ketchikan,US,55.3422,-131.6461,61.27,72,40,5.75,light rain
594,Takapau,NZ,-40.0333,176.35,53.73,82,100,8.88,light rain
595,Waingapu,ID,-9.6567,120.2641,84.52,50,14,9.26,few clouds
596,Bartica,GY,6.4,-58.6167,75.52,98,100,0.49,overcast clouds
597,Bagdarin,RU,54.4333,113.6,72.5,45,24,3.83,few clouds
598,Gravelbourg,CA,49.8834,-106.5512,71.87,31,13,10.51,few clouds
599,Mareeba,AU,-17.0,145.4333,80.44,53,21,6.76,few clouds
600,Makaryev,RU,57.8797,43.8069,58.15,62,80,4.29,broken clouds
601,Fasa,IR,28.9383,53.6482,76.24,31,0,4.61,clear sky
602,Kihei,US,20.785,-156.4656,84.22,79,40,21.85,light rain
603,Diego De Almagro,CL,-26.3667,-70.05,48.83,67,0,2.26,clear sky
604,Uvalde,US,29.3669,-99.767,85.19,42,1,6.91,clear sky
605,Kazachinskoye,RU,57.6953,93.2761,80.91,42,76,8.32,broken clouds
606,Jumla,NP,29.2747,82.1838,67.24,92,100,2.91,overcast clouds
607,Pandan,PH,14.0453,124.1694,87.51,68,100,11.95,overcast clouds
608,Kuusamo,FI,65.9667,29.1833,57.24,88,20,3.44,few clouds
609,Prachuap Khiri Khan,TH,12.2167,99.75,86.58,56,100,9.82,light rain
610,Petropavlovsk-Kamchatskiy,RU,53.0452,158.6483,75.79,61,0,8.95,clear sky
611,Magnolia,US,33.2671,-93.2393,83.26,67,70,1.3,broken clouds
612,Jieshi,CN,22.8134,115.8257,90.95,72,80,9.66,broken clouds
613,Zaykovo,RU,57.5613,62.7568,56.5,58,13,7.25,few clouds
614,Adrar,MR,20.5022,-10.0711,87.19,24,0,11.65,clear sky
615,Santa Cruz Cabralia,BR,-16.2781,-39.0247,66.43,100,75,4.61,broken clouds
616,Jalu,LY,29.0331,21.5482,74.86,44,0,8.08,clear sky
617,Kitui,KE,-1.367,38.0106,52.97,90,6,3.27,clear sky
618,Cockburn Town,TC,21.4612,-71.1419,82.38,83,85,17.43,overcast clouds
619,Sahuaripa,MX,29.05,-109.2333,83.41,54,67,2.26,broken clouds
620,Lanigan,CA,51.8501,-105.0344,64.29,62,52,6.8,broken clouds
621,Walvis Bay,NA,-22.9575,14.5053,74.35,27,63,20.71,broken clouds
622,Matagami,CA,49.7502,-77.6328,59.11,94,90,0.0,overcast clouds
623,Faya,SA,18.3851,42.4509,64.51,76,82,6.04,broken clouds
624,Pedernales,DO,18.0384,-71.744,80.1,76,90,4.47,overcast clouds
625,Menongue,AO,-14.6585,17.691,45.97,65,0,5.3,clear sky
626,Esperance,AU,-33.8667,121.9,62.44,67,2,22.73,clear sky
627,Teguldet,RU,57.3064,88.1667,75.88,68,100,1.74,overcast clouds
628,Sterling,US,39.0062,-77.4286,82.6,82,20,3.0,few clouds
629,Kurilsk,RU,45.2333,147.8833,69.39,70,4,5.82,clear sky
630,Katy,US,29.7858,-95.8244,86.76,78,42,3.0,scattered clouds
631,Kununurra,AU,-15.7667,128.7333,85.98,26,62,9.22,broken clouds
632,Isiro,CD,2.7739,27.616,66.81,99,96,2.33,overcast clouds
633,Coari,BR,-4.085,-63.1414,77.14,65,100,2.86,overcast clouds
634,Sherlovaya Gora,RU,50.5667,116.25,65.57,61,93,8.43,overcast clouds
635,Karlskoga,SE,59.3267,14.5239,58.91,90,50,3.94,scattered clouds
636,Ola,RU,59.5833,151.2833,56.28,96,100,1.66,moderate rain
637,Miri,MY,4.4148,114.0089,91.54,66,40,5.75,scattered clouds
638,Labuhan,ID,-6.8844,112.2051,83.75,57,2,5.61,clear sky
639,Gudari,IN,19.35,83.7833,87.13,64,37,8.41,scattered clouds
640,Fairbanks,US,64.8378,-147.7164,72.01,52,90,6.91,overcast clouds
641,Cedar City,US,37.6775,-113.0619,74.37,50,1,11.5,clear sky
642,Chirongui,YT,-12.9319,45.1483,75.13,67,42,19.84,scattered clouds
643,Ekuvukeni,ZA,-28.4675,30.1551,38.88,66,0,3.24,clear sky
644,Skerries,IE,53.5828,-6.1083,61.0,84,1,7.94,clear sky
645,Deori,IN,21.45,82.6167,82.35,72,100,12.35,overcast clouds
646,Port Augusta,AU,-32.5,137.7667,66.34,34,7,18.19,clear sky
647,Inirida,CO,3.8653,-67.9239,72.5,98,100,2.1,overcast clouds
648,Avera,US,33.194,-82.5271,78.75,70,54,3.47,broken clouds
649,Waynesville,US,35.4887,-82.9887,72.01,95,17,1.01,few clouds
650,Santiago,CL,-33.4569,-70.6483,51.85,72,75,5.75,broken clouds
651,Codrington,AU,-38.2667,141.9667,57.16,85,93,18.16,light rain
652,Morro Bay,US,35.3658,-120.8499,74.28,84,55,1.01,broken clouds
653,Ust-Karsk,RU,52.7011,118.8077,63.73,89,99,5.12,light rain
654,Mutis,CO,6.2262,-77.4044,76.75,87,100,5.95,overcast clouds
655,Buin,CL,-33.7333,-70.75,52.74,93,69,1.99,broken clouds
656,Lagoa Vermelha,BR,-28.2086,-51.5258,64.83,67,100,7.16,overcast clouds
657,San-Pedro,CI,4.7485,-6.6363,75.04,82,31,6.11,scattered clouds
658,Esmeraldas,BR,-19.7625,-44.3139,59.86,68,0,4.74,clear sky
659,Burdur,TR,37.7203,30.2908,54.3,100,0,0.0,clear sky
660,Arrifes,PT,37.7667,-25.7,64.65,94,40,6.91,light intensity drizzle
661,Batticaloa,LK,7.7102,81.6924,85.08,61,98,6.02,overcast clouds
662,Ettenheim,DE,48.25,7.8167,66.43,82,77,3.8,broken clouds
663,Evensk,RU,61.95,159.2333,49.57,99,100,8.59,light rain
664,Oksfjord,NO,70.2396,22.3479,51.87,98,100,5.7,light rain
665,Mount Isa,AU,-20.7333,139.5,73.17,18,78,10.36,broken clouds
666,Verkh-Usugli,RU,52.7,115.1667,60.67,78,100,5.01,overcast clouds
667,Linjiang,CN,41.8069,126.9078,90.63,46,87,4.83,overcast clouds
668,Sand Springs,US,36.1398,-96.1089,79.48,88,1,4.61,clear sky
669,Katastarion,GR,37.8333,20.7667,78.71,68,0,2.3,clear sky
670,Luis Correia,BR,-2.8792,-41.6669,76.84,82,11,8.5,few clouds
671,San Carlos,VE,9.6612,-68.5827,72.97,96,100,2.37,overcast clouds
672,Deyang,CN,31.1302,104.382,82.89,73,17,2.35,few clouds
673,Turmalina,BR,-17.2856,-42.73,53.4,96,0,1.59,clear sky
674,Garowe,SO,8.4054,48.4845,74.35,60,88,25.26,overcast clouds
675,Harlingen,US,26.1906,-97.6961,84.34,93,40,9.22,scattered clouds
676,Luau,AO,-10.7073,22.2247,57.51,45,44,7.4,scattered clouds
677,Marseille,FR,43.3333,5.5,70.84,64,13,2.26,few clouds
678,Port Lincoln,AU,-34.7333,135.8667,60.49,66,55,20.54,broken clouds
679,Vila Franca Do Campo,PT,37.7167,-25.4333,66.61,85,57,7.47,broken clouds
680,Koumac,NC,-20.5667,164.2833,74.61,62,18,16.89,few clouds
681,Champasak,LA,14.75,106.0,81.48,84,100,2.48,overcast clouds
682,Staryy Nadym,RU,65.6118,72.6842,53.2,64,95,9.95,overcast clouds
683,Matamoros,MX,25.5333,-103.25,86.11,26,80,6.17,broken clouds
684,Ibra,OM,22.6906,58.5334,86.59,51,91,6.82,overcast clouds
685,Manjeshwar,IN,12.7194,74.8861,77.95,90,99,8.16,overcast clouds
686,Dinghai,CN,26.2847,119.7936,94.12,75,90,10.0,overcast clouds
687,Carbondale,US,37.7273,-89.2168,79.23,100,1,0.0,mist
688,Umm Kaddadah,SD,13.6017,26.6876,81.18,60,95,12.68,overcast clouds
689,Maridi,SS,4.9158,29.4742,65.89,99,100,1.61,moderate rain
690,El Tigre,VE,8.8875,-64.2454,72.84,96,100,7.2,overcast clouds
691,Gavalou,GR,38.5333,21.5333,78.48,48,0,4.45,clear sky
692,Tezu,IN,27.9167,96.1667,81.55,94,100,0.22,overcast clouds
693,Phan Thiet,VN,10.9333,108.1,87.33,61,35,14.92,scattered clouds
694,Saryagash,KZ,41.4511,69.1701,91.36,12,0,3.11,clear sky
695,Martapura,ID,-3.4167,114.85,87.89,58,20,11.5,few clouds
696,Lasa,IT,46.6166,10.7002,62.02,88,100,1.48,light rain
697,Carauari,BR,-4.8828,-66.8958,75.24,75,25,1.99,scattered clouds
698,Kruisfontein,ZA,-34.0033,24.7314,53.89,34,100,12.01,overcast clouds
699,Deoria,IN,26.5047,83.7872,85.96,72,100,7.99,overcast clouds
700,Taraz,KZ,42.9,71.3667,90.01,18,0,4.47,clear sky
701,Cuenca,EC,-2.8833,-78.9833,53.1,92,83,1.63,broken clouds
702,Koulamoutou,GA,-1.1303,12.4736,70.86,94,93,1.28,overcast clouds
703,Albemarle,US,35.3501,-80.2001,80.6,93,1,0.0,clear sky
704,Ahtopol,BG,42.1,27.95,61.27,80,0,6.22,clear sky
705,Benjamin Aceval,PY,-24.9667,-57.5667,80.74,44,99,5.77,moderate rain
706,Trincomalee,LK,8.5711,81.2335,83.03,72,100,22.73,overcast clouds
707,Ganzhou,CN,28.8184,115.4327,90.36,58,65,3.04,broken clouds
708,Marondera,ZW,-18.1853,31.5519,36.16,92,0,8.63,clear sky
709,Nanyang,CN,32.9947,112.5328,88.16,62,0,3.02,light rain
710,Besikduzu,TR,41.052,39.2284,76.89,84,34,4.65,scattered clouds
711,Deputatskiy,RU,69.3,139.9,58.71,52,100,4.68,overcast clouds
712,Pafos,CY,34.7667,32.4167,76.91,50,0,6.91,clear sky
713,Otradnoye,RU,59.7775,30.8181,64.96,65,63,3.53,broken clouds
714,Matay,EG,28.419,30.7792,76.15,63,0,10.07,clear sky
715,Inta,RU,66.0317,60.1659,45.59,89,98,6.98,overcast clouds
716,Itaituba,BR,-4.2761,-55.9836,74.23,57,100,1.39,overcast clouds
717,Daru,PG,-9.0763,143.2092,78.04,77,100,12.91,overcast clouds
718,Concepcion Del Oro,MX,24.6333,-101.4167,71.31,35,37,10.83,scattered clouds
719,Valdivia,CL,-39.8142,-73.2459,37.63,93,6,1.99,clear sky
720,Nanzhang,CN,31.7765,111.8386,88.47,61,0,4.21,light rain
721,Mogadishu,SO,2.0371,45.3438,76.32,76,9,18.57,clear sky
722,Amarante Do Maranhao,BR,-5.5667,-46.7422,72.27,54,6,3.78,clear sky
723,Vikhorevka,RU,56.1201,101.1636,80.19,39,100,7.61,overcast clouds
